{
  "properties": {
    "id": "18mapcon_gp_red",
    "name": "拠点的な指定きん急ひなん場所",
    "icon": "parts/pin_red.png"
  },
  "type": "FeatureCollection",
  "features": [
    {
      "type": "Feature",
      "properties": {
        "name": "広島国際会議場",
        "id": "10",
        "image": ["18mapcon_gp_10.jpg"],
        "address": "指定きん急ひなん場所・指定ひなん場所[洪水][土砂災害・がけ崩れ・土石流および地すべり][高潮]",
        "desc": "洪水・土砂災害・高潮の時にひなんする。\n[山岡さんにインタビューをした‼]\n①海外の人が多いので、じゅん一級の人が受付にいる。（英検）\n②びちくは広島市から毛布や食料が運ばれてくる。\n③けいびいんやせいそういんもいっしょに消防局をよんで消防訓練などを年に数回する。"
      },
      "geometry": {
        "type": "Point",
        "coordinates": [
          132.451048,
          34.392095
        ]
      }
    },
    {
      "type": "Feature",
      "properties": {
        "name": "アステールプラザ",
        "id": "12",
        "image": ["18mapcon_gp_12.jpg"],
        "address": "拠点的な指定きん急ひなん場所",
        "desc": "[アステールプラザの受付の人に聞いてみた。]\n①びちくもあり、防災訓練もしている。\n②コンサートホールは使用しない。\n③外国の人が多いので、英語を話せる人が、受付にいて災害が起きた時でも対応できるようにしてある。"
      },
      "geometry": {
        "type": "Point",
        "coordinates": [
          132.44805,
          34.387664
        ]
      }
    },
    {
      "type": "Feature",
      "properties": {
        "name": "中島小学校",
        "id": "13",
        "image": ["18mapcon_gp_13.jpg","18mapcon_gp_13_2.jpg"],
        "address": "拠点的な指定きん急ひなん場所",
        "desc": "中島小学校は、拠点的な指定きん急ひなん場所になっている。（地震のひなんは中島小学校の校庭）"
      },
      "geometry": {
        "type": "Point",
        "coordinates": [
          132.447964,
          34.386451
        ]
      }
    },
    {
      "type": "Feature",
      "properties": {
        "name": "千田小学校",
        "id": "22",
        "image": ["18mapcon_gp_22.jpg"],
        "address": "拠点的な指定きん急ひなん場所[洪水][土砂災害・がけ崩れ・土石流および地すべり][高潮]",
        "desc": " "
      },
      "geometry": {
        "type": "Point",
        "coordinates": [
          132.45975,
          34.37958
        ]
      }
    },
    {
      "type": "Feature",
      "properties": {
        "name": "広島赤十字・原爆病院",
        "id": "25",
        "image": ["18mapcon_gp_25.jpg"],
        "address": "災害拠点病院、DMAT指定医りょう機関",
        "desc": "24時間いつでもきん急たい応できる。"
      },
      "geometry": {
        "type": "Point",
        "coordinates": [
          132.454353,
          34.380912
        ]
      }
    },
    {
      "type": "Feature",
      "properties": {
        "name": "中区スポーツセンター",
        "id": "28",
        "image": ["18mapcon_gp_28.jpg","18mapcon_gp_28_2.jpg"],
        "address": "拠点的な指定きん急ひなん場所",
        "desc": "[中区スポーツセンターの受付の人に聞いてみた]\n①千田小学校が満員の場合、市のようせいで、ひなん場所として受入れする。\n②倉庫にびちく（大人用おむつや、毛布類）がある。\n③年に2回防災訓練をしている。"
      },
      "geometry": {
        "type": "Point",
        "coordinates": [
          132.457126,
          34.375763
        ]
      }
    },
    {
      "type": "Feature",
      "properties": {
        "name": "広島大学附属小・中・高等学校",
        "id": "30",
        "image": ["18mapcon_gp_30.jpg","18mapcon_gp_30_2.jpg"],
        "address": "拠点的な指定きん急ひなん場所",
        "desc": "[深渡瀬先生・塚田先生・南区地域起こし推進課の人にインタビューをした‼]\n①約1000人がひなんできる。\n②びちく（毛布・非常食・非常用バッテリー・マスク）が倉庫にある。\n③地震に強い建物こう造になっている。\n④近所の方もひなんができる。\n⑤ひなん訓練を「おはしも」を守ってしている。\n⑥小学校・中学校・高等学校のそれぞれに物資がある。\n「おはしも」\n「お」さない\n「は」しらない\n「し」ゃべらない\n「も」どらない"
      },
      "geometry": {
        "type": "Point",
        "coordinates": [
          132.466471,
          34.371933
        ]
      }
    }
  ]
}