{
    "app_name" : "鯖江市古地図アプリ",
    "lang": "ja",
    "fake_gps" : true,
    "fake_center" : "鯖江市",
    "fake_radius" : 10,
    "home_position" : [136.188948,35.943469],
    "default_zoom" : 17,
    "sources" : [
        {
            "mapID" : "sabae004",
            "label" : 1720
        },{
            "mapID" : "sabae005",
            "label" : 1735
        },{
            "mapID" : "sabae006",
            "label" : 1867
        },{
            "mapID" : "sabae007",
            "label" : 1914
        },{
            "mapID" : "sabae001",
            "label" : 1963
        },{
            "mapID" : "sabae003",
            "label" : 2002
        },
        "gsi",
        "gsi_ortho",
        {
            "mapID" : "mapbox",
            "label" : "Mapbox"
        },
        "osm"
    ], 
    "pois" :[
        {
            "name" : "王山古墳群",
            "address" : "福井県鯖江市日の出町",
            "lat" : 35.9398258,
            "lng" : 136.1860238,
            "desc" : "王山古墳群（おうざんこふんぐん）とは、福井県鯖江市日の出町に位置する独立丘陵「王山」に分布している弥生時代後期（3世紀）から古墳時代中期（5世紀）に築造された総数49基からなる古墳群である。1967年（昭和42年）6月、国の史跡に指定。",
            "image" : "ouzan.jpg"
        },{
            "name" : "兜山古墳",
            "address" : "福井県鯖江市神明町2丁目",
            "lat" : 35.9736289,
            "lng" : 136.1830373,
            "desc" : "鯖江台地北部のゆるやかな東側斜面に位置する、２段築成の大型円墳である。墳頂上には、八幡神社の社殿が建ち、墳丘全体が神社地となっている。墳丘の規模は直径約60m、高さ約7m、幅約17mの周濠を持ち、県内では最大規模の円墳である。埴輪や葺石は認められない。また、埋葬施設は未調査のために不明である。古墳の築造年代は5世紀代と考えられる。",
            "image" : "kabutoyama.jpg"
        },{
            "name" : "旧瓜生家住宅",
            "address" : "福井県鯖江市水落町4丁目701・702",
            "lat" : 35.9721767,
            "lng" : 136.1829075,
            "desc" : "旧瓜生家住宅は江戸時代中期の1699（元禄12）年に建てられたものであり、茅葺きの屋根、土間や囲炉裏といった当時の民家の構造を今に伝えています。なお福井県内に残る古民家としては最古であり、国の重要文化財に指定されているほか、福井県が認定する「ふくいの伝統的民家」にも指定されています（平成18年度認定 茅葺き民家）。",
            "image" : "kyu_uriu.jpg"
        },{
            "name" : "本山誠照寺",
            "address" : "福井県鯖江市本町3丁目2-38",
            "lat" : 35.9471416,
            "lng" : 136.1841591,
            "desc" : "誠照寺（じょうしょうじ）は、浄土真宗誠照寺派の本山です（別名：鯖江本山）。山号は上野山（うわのさん）であり、合わせて上野山誠照寺と呼びます。",
            "image" : "joshoji.jpg"
        },{
            "name" : "西福寺",
            "address" : "福井県鯖江市本町2丁目3-21",
            "lat" : 35.9460403,
            "lng" : 136.1841761,
            "desc" : "市内最古の寺院本堂。",
            "image" : "saifukuji.jpg"
        },{
            "name" : "西山公園",
            "address" : "福井県鯖江市小黒町",
            "lat" : 35.9545272,
            "lng" : 136.1804203,
            "desc" : "鯖江市のほぼ中央に位置。元は江戸時代の嚮陽渓（きょうようけい）に由来し、当時の鯖江藩主 間部詮勝により、1856（安政3）年、領民の憩いの場として開かれた。現在の西山公園は1915（大正4）年に整備。",
            "image" : "nishiyama_park.jpg"
        }
    ]
}